{
    "clubs": [{
        "data": {
            "id": "0"
        },
        "title": {
            "text": "Владимир"
        },
        "coordinates": [56.128265, 40.394534],
        "address_full": "г.&nbsp;Владимир, октябрьский проспект, д.&nbsp;10, 4-5 этажи",
        "work_hours": { 
            "title": {
                "text": "Время работы"
            },
            "items": [
                "Пн—Вс с 10:00 до 21:00"
            ]
        },
        "tel": "+7 (495) 946–76–09"
    }, {
        "data": {
            "id": "1"
        },
        "title": {
            "text": "Клин"
        },
        "coordinates": [56.331124, 36.713768],
        "address_full": "г.&nbsp;Клин, ул. Карла Маркса, д.&nbsp;6, стр.&nbsp;7, ТЦ «Клинский», 3 этаж",
        "work_hours": {
            "title": {
                "text": "Время работы"
            },
            "items": [
                "Пн—Пт с 07:00 до 24:00,",
                "Сб—Вс 09:00 до 21:00"
            ]
        },
        "tel": "+7 (495) 946–76–09"
    }, {
        "data": {
            "id": "2"
        },
        "title": {
            "text": "Солнечногорск"
        },
        "coordinates": [56.188904, 36.976346],
        "address_full": "г.&nbsp;Солнечногорск, ул.&nbsp;Красная, д.&nbsp;120",
        "work_hours": {
            "title": {
                "text": "Время работы"
            },
            "items": [
                "Пн—Вс, с 10:00 до 21:00"
            ]
        },
        "tel": "+7 (495) 946–76–09"
    }, {
        "data": {
            "id": "3"
        },
        "title": {
            "text": "Электросталь"
        },
        "coordinates": [55.796521, 38.440896],
        "address_full": "г.&nbsp;Электросталь, пр-т.&nbsp;Ленина, д.&nbsp;25а",
        "work_hours": {
            "title": {
                "text": "Время работы"
            },
            "items": [
                "Пн—Вс, с 10:00 до 21:00"
            ]
        },
        "tel": "+7 (495) 946–76–09"
    }, {
        "data": {
            "id": "4"
        },
        "title": {
            "text": "Орехово–зуево"
        },
        "coordinates": [55.812757, 38.999559],
        "address_full": "г.&nbsp;Орехово-Зуево, ул.&nbsp;Ленина, д.&nbsp;121, ТЦ Остров",
        "work_hours": {
            "title": {
                "text": "Время работы"
            },
            "items": [
                "Пн—Вс, с 10:00 до 21:00"
            ]
        },
        "tel": "+7 (495) 946–76–09"
    }, {
        "data": {
            "id": "5"
        },
        "title": {
            "text": "Звенигород"
        },
        "coordinates": [55.730061, 36.853259],
        "address_full": "г.&nbsp;Звенигород, ул.&nbsp;Московская, д.&nbsp;12",
        "work_hours": {
            "title": {
                "text": "Время работы"
            },
            "items": [
                "Пн—Вс, с 10:00 до 21:00"
            ]
        },
        "tel": "+7 (495) 946–76–09"
    }, {
        "data": {
            "id": "6"
        },
        "title": {
            "text": "Краснознаменск"
        },
        "coordinates": [55.594962, 37.038932],
        "address_full": "г.&nbsp;Краснознаменск, ул. Краснознаменная, 23",
        "work_hours": {
            "title": {
                "text": "Время работы"
            },
            "items": [
                "Пн—Вс, с 10:00 до 21:00"
            ]
        },
        "tel": "+7 (495) 946–76–09"
    }, {
        "data": {
            "id": "7"
        },
        "title": {
            "text": "Голицыно"
        },
        "coordinates": [55.629323, 37.011659],
        "address_full": "Московская область, Большие Вяземы, пос.&nbsp;Школьный, 12&nbsp;А",
        "work_hours": {
            "title": {
                "text": "Время работы"
            },
            "items": [
                "Пн-Пт 7:00-24:00",
                "Сб-Вс 9:00-22:00"
            ]
        },
        "tel": "+7 (495) 946–76–03"
    }]
}
